const weatherStations = {
   "type": "FeatureCollection",
   "features": [
  {
    "type": "Feature",
    "geometry": {
       "type": "Point",
       "coordinates":  [ 18.8164,68.3538 ]
    },
    "properties": {
    "Id":188790,
    "Namn":"Abisko Aut",
    "Höjd (m)":392.303,
    "Aktiv":"Ja"
    }
  },
  {
    "type": "Feature",
    "geometry": {
       "type": "Point",
       "coordinates":  [ 17.5213,59.3579 ]
    },
    "properties": {
    "Id":97280,
    "Namn":"Adelsö A",
    "Höjd (m)":5.612,
    "Aktiv":"Ja"
    }
  },
  {
    "type": "Feature",
    "geometry": {
       "type": "Point",
       "coordinates":  [ 17.8396,66.0513 ]
    },
    "properties": {
    "Id":167710,
    "Namn":"Arjeplog A",
    "Höjd (m)":430.839,
    "Aktiv":"Ja"
    }
  },
  {
    "type": "Feature",
    "geometry": {
       "type": "Point",
       "coordinates":  [ 19.2642,65.5941 ]
    },
    "properties": {
    "Id":159880,
    "Namn":"Arvidsjaur A",
    "Höjd (m)":382.45,
    "Aktiv":"Ja"
    }
  },
  {
    "type": "Feature",
    "geometry": {
       "type": "Point",
       "coordinates":  [ 12.6354,59.6743 ]
    },
    "properties": {
    "Id":92410,
    "Namn":"Arvika A",
    "Höjd (m)":65.758,
    "Aktiv":"Ja"
    }
  },
  {
    "type": "Feature",
    "geometry": {
       "type": "Point",
       "coordinates":  [ 14.557,58.571 ]
    },
    "properties": {
    "Id":84340,
    "Namn":"Axstål Mo",
    "Höjd (m)":88.5,
    "Aktiv":"Ja"
    }
  },
  {
    "type": "Feature",
    "geometry": {
       "type": "Point",
       "coordinates":  [ 12.8441,56.2979 ]
    },
    "properties": {
    "Id":62180,
    "Namn":"Barkåkra",
    "Höjd (m)":18,
    "Aktiv":"Ja"
    }
  },
  {
    "type": "Feature",
    "geometry": {
       "type": "Point",
       "coordinates":  [ 18.115,59.068 ]
    },
    "properties": {
    "Id":98040,
    "Namn":"Berga Mo",
    "Höjd (m)":4.3,
    "Aktiv":"Ja"
    }
  },
  {
    "type": "Feature",
    "geometry": {
       "type": "Point",
       "coordinates":  [ 21.5754,64.4799 ]
    },
    "properties": {
    "Id":151280,
    "Namn":"Bjuröklubb A",
    "Höjd (m)":35.41,
    "Aktiv":"Ja"
    }
  },
  {
    "type": "Feature",
    "geometry": {
       "type": "Point",
       "coordinates":  [ 12.0754,59.2213 ]
    },
    "properties": {
    "Id":92130,
    "Namn":"Blomskog A",
    "Höjd (m)":169.645,
    "Aktiv":"Ja"
    }
  },
  {
    "type": "Feature",
    "geometry": {
       "type": "Point",
       "coordinates":  [ 12.1734,63.1854 ]
    },
    "properties": {
    "Id":132110,
    "Namn":"Blåhammaren A",
    "Höjd (m)":1086.952,
    "Aktiv":"Ja"
    }
  },
  {
    "type": "Feature",
    "geometry": {
       "type": "Point",
       "coordinates":  [ 21.635,65.814 ]
    },
    "properties": {
    "Id":161940,
    "Namn":"Boden Mo",
    "Höjd (m)":25.2,
    "Aktiv":"Ja"
    }
  },
  {
    "type": "Feature",
    "geometry": {
       "type": "Point",
       "coordinates":  [ 15.5079,60.4294 ]
    },
    "properties": {
    "Id":105260,
    "Namn":"Borlänge Flygplats",
    "Höjd (m)":152,
    "Aktiv":"Ja"
    }
  },
  {
    "type": "Feature",
    "geometry": {
       "type": "Point",
       "coordinates":  [ 12.9493,57.7611 ]
    },
    "properties": {
    "Id":72450,
    "Namn":"Borås",
    "Höjd (m)":135,
    "Aktiv":"Ja"
    }
  },
  {
    "type": "Feature",
    "geometry": {
       "type": "Point",
       "coordinates":  [ 17.739,62.2198 ]
    },
    "properties": {
    "Id":127130,
    "Namn":"Brämön A",
    "Höjd (m)":18.13,
    "Aktiv":"Ja"
    }
  },
  {
    "type": "Feature",
    "geometry": {
       "type": "Point",
       "coordinates":  [ 17.8554,65.558 ]
    },
    "properties": {
    "Id":157870,
    "Namn":"Buresjön A",
    "Höjd (m)":394.05,
    "Aktiv":"Ja"
    }
  },
  {
    "type": "Feature",
    "geometry": {
       "type": "Point",
       "coordinates":  [ 13.8427,62.7548 ]
    },
    "properties": {
    "Id":123460,
    "Namn":"Börtnan A",
    "Höjd (m)":467.246,
    "Aktiv":"Ja"
    }
  },
  {
    "type": "Feature",
    "geometry": {
       "type": "Point",
       "coordinates":  [ 14.1803,59.6612 ]
    },
    "properties": {
    "Id":94390,
    "Namn":"Daglösen A",
    "Höjd (m)":133.077,
    "Aktiv":"Ja"
    }
  },
  {
    "type": "Feature",
    "geometry": {
       "type": "Point",
       "coordinates":  [ 16.5385,61.8264 ]
    },
    "properties": {
    "Id":116490,
    "Namn":"Delsbo A",
    "Höjd (m)":70.667,
    "Aktiv":"Ja"
    }
  },
  {
    "type": "Feature",
    "geometry": {
       "type": "Point",
       "coordinates":  [ 13.6086,62.0936 ]
    },
    "properties": {
    "Id":123060,
    "Namn":"Dravagen A",
    "Höjd (m)":566.642,
    "Aktiv":"Ja"
    }
  },
  {
    "type": "Feature",
    "geometry": {
       "type": "Point",
       "coordinates":  [ 12.8709,63.9812 ]
    },
    "properties": {
    "Id":132590,
    "Namn":"Edevik",
    "Höjd (m)":425,
    "Aktiv":"Ja"
    }
  },
  {
    "type": "Feature",
    "geometry": {
       "type": "Point",
       "coordinates":  [ 15.7144,61.3607 ]
    },
    "properties": {
    "Id":115220,
    "Namn":"Edsbyn A",
    "Höjd (m)":183.648,
    "Aktiv":"Ja"
    }
  },
  {
    "type": "Feature",
    "geometry": {
       "type": "Point",
       "coordinates":  [ 17.5584,60.7298 ]
    },
    "properties": {
    "Id":107440,
    "Namn":"Eggegrund A",
    "Höjd (m)":3.731,
    "Aktiv":"Ja"
    }
  },
  {
    "type": "Feature",
    "geometry": {
       "type": "Point",
       "coordinates":  [ 17.12,59.65 ]
    },
    "properties": {
    "Id":97370,
    "Namn":"Enköping Mo",
    "Höjd (m)":24.6,
    "Aktiv":"Ja"
    }
  },
  {
    "type": "Feature",
    "geometry": {
       "type": "Point",
       "coordinates":  [ 16.4526,59.3821 ]
    },
    "properties": {
    "Id":96190,
    "Namn":"Eskilstuna A",
    "Höjd (m)":12.577,
    "Aktiv":"Ja"
    }
  },
  {
    "type": "Feature",
    "geometry": {
       "type": "Point",
       "coordinates":  [ 12.8167,55.3837 ]
    },
    "properties": {
    "Id":52230,
    "Namn":"Falsterbo",
    "Höjd (m)":1.541,
    "Aktiv":"Ja"
    }
  },
  {
    "type": "Feature",
    "geometry": {
       "type": "Point",
       "coordinates":  [ 12.8166,55.3837 ]
    },
    "properties": {
    "Id":52240,
    "Namn":"Falsterbo A",
    "Höjd (m)":1.575,
    "Aktiv":"Ja"
    }
  },
  {
    "type": "Feature",
    "geometry": {
       "type": "Point",
       "coordinates":  [ 17.9043,60.2358 ]
    },
    "properties": {
    "Id":107140,
    "Namn":"Film A",
    "Höjd (m)":33.381,
    "Aktiv":"Ja"
    }
  },
  {
    "type": "Feature",
    "geometry": {
       "type": "Point",
       "coordinates":  [ 16.3944,59.0558 ]
    },
    "properties": {
    "Id":96040,
    "Namn":"Floda A",
    "Höjd (m)":31.337,
    "Aktiv":"Ja"
    }
  },
  {
    "type": "Feature",
    "geometry": {
       "type": "Point",
       "coordinates":  [ 18.3619,64.0744 ]
    },
    "properties": {
    "Id":148040,
    "Namn":"Fredrika A",
    "Höjd (m)":327.684,
    "Aktiv":"Ja"
    }
  },
  {
    "type": "Feature",
    "geometry": {
       "type": "Point",
       "coordinates":  [ 14.4863,63.1974 ]
    },
    "properties": {
    "Id":134110,
    "Namn":"Frösön",
    "Höjd (m)":376,
    "Aktiv":"Ja"
    }
  },
  {
    "type": "Feature",
    "geometry": {
       "type": "Point",
       "coordinates":  [ 18.9533,57.9165 ]
    },
    "properties": {
    "Id":78550,
    "Namn":"Fårösund Ar A",
    "Höjd (m)":12.756,
    "Aktiv":"Ja"
    }
  },
  {
    "type": "Feature",
    "geometry": {
       "type": "Point",
       "coordinates":  [ 14.6048,63.6761 ]
    },
    "properties": {
    "Id":134410,
    "Namn":"Föllinge A",
    "Höjd (m)":361.8,
    "Aktiv":"Ja"
    }
  },
  {
    "type": "Feature",
    "geometry": {
       "type": "Point",
       "coordinates":  [ 15.0645,65.3269 ]
    },
    "properties": {
    "Id":155790,
    "Namn":"Gielas A",
    "Höjd (m)":578.328,
    "Aktiv":"Ja"
    }
  },
  {
    "type": "Feature",
    "geometry": {
       "type": "Point",
       "coordinates":  [ 16.4526,57.7068 ]
    },
    "properties": {
    "Id":76420,
    "Namn":"Gladhammar A",
    "Höjd (m)":35.277,
    "Aktiv":"Ja"
    }
  },
  {
    "type": "Feature",
    "geometry": {
       "type": "Point",
       "coordinates":  [ 19.194,58.3939 ]
    },
    "properties": {
    "Id":89230,
    "Namn":"Gotska Sandön A",
    "Höjd (m)":15.911,
    "Aktiv":"Ja"
    }
  },
  {
    "type": "Feature",
    "geometry": {
       "type": "Point",
       "coordinates":  [ 15.5529,64.2172 ]
    },
    "properties": {
    "Id":145130,
    "Namn":"Gubbhögen A",
    "Höjd (m)":310.221,
    "Aktiv":"Ja"
    }
  },
  {
    "type": "Feature",
    "geometry": {
       "type": "Point",
       "coordinates":  [ 17.6993,65.0094 ]
    },
    "properties": {
    "Id":147560,
    "Namn":"Gunnarn A",
    "Höjd (m)":275.491,
    "Aktiv":"Ja"
    }
  },
  {
    "type": "Feature",
    "geometry": {
       "type": "Point",
       "coordinates":  [ 13.7975,60.1514 ]
    },
    "properties": {
    "Id":103090,
    "Namn":"Gustavsfors",
    "Höjd (m)":190,
    "Aktiv":"Ja"
    }
  },
  {
    "type": "Feature",
    "geometry": {
       "type": "Point",
       "coordinates":  [ 13.799,60.1533 ]
    },
    "properties": {
    "Id":103100,
    "Namn":"Gustavsfors A",
    "Höjd (m)":187.153,
    "Aktiv":"Ja"
    }
  },
  {
    "type": "Feature",
    "geometry": {
       "type": "Point",
       "coordinates":  [ 14.2207,64.5044 ]
    },
    "properties": {
    "Id":144310,
    "Namn":"Gäddede A",
    "Höjd (m)":553.025,
    "Aktiv":"Ja"
    }
  },
  {
    "type": "Feature",
    "geometry": {
       "type": "Point",
       "coordinates":  [ 20.6413,67.1407 ]
    },
    "properties": {
    "Id":180760,
    "Namn":"Gällivare A",
    "Höjd (m)":358.975,
    "Aktiv":"Ja"
    }
  },
  {
    "type": "Feature",
    "geometry": {
       "type": "Point",
       "coordinates":  [ 17.1607,60.7161 ]
    },
    "properties": {
    "Id":107420,
    "Namn":"Gävle A",
    "Höjd (m)":16.125,
    "Aktiv":"Ja"
    }
  },
  {
    "type": "Feature",
    "geometry": {
       "type": "Point",
       "coordinates":  [ 14.3875,58.8768 ]
    },
    "properties": {
    "Id":84520,
    "Namn":"Gårdsjö A",
    "Höjd (m)":210.675,
    "Aktiv":"Ja"
    }
  },
  {
    "type": "Feature",
    "geometry": {
       "type": "Point",
       "coordinates":  [ 11.9924,57.7156 ]
    },
    "properties": {
    "Id":71420,
    "Namn":"Göteborg A",
    "Höjd (m)":3.038,
    "Aktiv":"Ja"
    }
  },
  {
    "type": "Feature",
    "geometry": {
       "type": "Point",
       "coordinates":  [ 14.137,57.292 ]
    },
    "properties": {
    "Id":74180,
    "Namn":"Hagshult Mo",
    "Höjd (m)":169.6,
    "Aktiv":"Ja"
    }
  },
  {
    "type": "Feature",
    "geometry": {
       "type": "Point",
       "coordinates":  [ 12.5453,56.4496 ]
    },
    "properties": {
    "Id":62260,
    "Namn":"Hallands Väderö A",
    "Höjd (m)":9.172,
    "Aktiv":"Ja"
    }
  },
  {
    "type": "Feature",
    "geometry": {
       "type": "Point",
       "coordinates":  [ 15.3279,63.7685 ]
    },
    "properties": {
    "Id":135460,
    "Namn":"Hallhåxåsen A",
    "Höjd (m)":375.391,
    "Aktiv":"Ja"
    }
  },
  {
    "type": "Feature",
    "geometry": {
       "type": "Point",
       "coordinates":  [ 14.9918,61.6599 ]
    },
    "properties": {
    "Id":114410,
    "Namn":"Hamra A",
    "Höjd (m)":453.588,
    "Aktiv":"Ja"
    }
  },
  {
    "type": "Feature",
    "geometry": {
       "type": "Point",
       "coordinates":  [ 14.8463,56.0135 ]
    },
    "properties": {
    "Id":64020,
    "Namn":"Hanö A",
    "Höjd (m)":58.622,
    "Aktiv":"Ja"
    }
  },
  {
    "type": "Feature",
    "geometry": {
       "type": "Point",
       "coordinates":  [ 24.1112,65.8237 ]
    },
    "properties": {
    "Id":163960,
    "Namn":"Haparanda A",
    "Höjd (m)":13.243,
    "Aktiv":"Ja"
    }
  },
  {
    "type": "Feature",
    "geometry": {
       "type": "Point",
       "coordinates":  [ 17.0106,58.2505 ]
    },
    "properties": {
    "Id":87140,
    "Namn":"Harstena A",
    "Höjd (m)":14,
    "Aktiv":"Ja"
    }
  },
  {
    "type": "Feature",
    "geometry": {
       "type": "Point",
       "coordinates":  [ 12.7653,56.0304 ]
    },
    "properties": {
    "Id":62040,
    "Namn":"Helsingborg A",
    "Höjd (m)":43,
    "Aktiv":"Ja"
    }
  },
  {
    "type": "Feature",
    "geometry": {
       "type": "Point",
       "coordinates":  [ 15.0854,65.8077 ]
    },
    "properties": {
    "Id":155970,
    "Namn":"Hemavan Flygplats",
    "Höjd (m)":458,
    "Aktiv":"Ja"
    }
  },
  {
    "type": "Feature",
    "geometry": {
       "type": "Point",
       "coordinates":  [ 15.0623,65.7813 ]
    },
    "properties": {
    "Id":155960,
    "Namn":"Hemavan-Gierevarto A",
    "Höjd (m)":793.504,
    "Aktiv":"Ja"
    }
  },
  {
    "type": "Feature",
    "geometry": {
       "type": "Point",
       "coordinates":  [ 18.5466,63.6503 ]
    },
    "properties": {
    "Id":138390,
    "Namn":"Hemling A",
    "Höjd (m)":182.186,
    "Aktiv":"Ja"
    }
  },
  {
    "type": "Feature",
    "geometry": {
       "type": "Point",
       "coordinates":  [ 13.6319,57.4669 ]
    },
    "properties": {
    "Id":73230,
    "Namn":"Hestra D",
    "Höjd (m)":220,
    "Aktiv":"Ja"
    }
  },
  {
    "type": "Feature",
    "geometry": {
       "type": "Point",
       "coordinates":  [ 18.1506,56.9209 ]
    },
    "properties": {
    "Id":68560,
    "Namn":"Hoburg A",
    "Höjd (m)":34.118,
    "Aktiv":"Ja"
    }
  },
  {
    "type": "Feature",
    "geometry": {
       "type": "Point",
       "coordinates":  [ 20.8645,63.807 ]
    },
    "properties": {
    "Id":140460,
    "Namn":"Holmön A",
    "Höjd (m)":6.535,
    "Aktiv":"Ja"
    }
  },
  {
    "type": "Feature",
    "geometry": {
       "type": "Point",
       "coordinates":  [ 15.8623,57.8861 ]
    },
    "properties": {
    "Id":75520,
    "Namn":"Horn A",
    "Höjd (m)":89.822,
    "Aktiv":"Ja"
    }
  },
  {
    "type": "Feature",
    "geometry": {
       "type": "Point",
       "coordinates":  [ 16.2356,64.0875 ]
    },
    "properties": {
    "Id":146050,
    "Namn":"Hoting A",
    "Höjd (m)":241.55,
    "Aktiv":"Ja"
    }
  },
  {
    "type": "Feature",
    "geometry": {
       "type": "Point",
       "coordinates":  [ 15.0845,62.7504 ]
    },
    "properties": {
    "Id":125440,
    "Namn":"Hunge A",
    "Höjd (m)":343.238,
    "Aktiv":"Ja"
    }
  },
  {
    "type": "Feature",
    "geometry": {
       "type": "Point",
       "coordinates":  [ 13.0379,58.3218 ]
    },
    "properties": {
    "Id":83190,
    "Namn":"Hällum A",
    "Höjd (m)":70.071,
    "Aktiv":"Ja"
    }
  },
  {
    "type": "Feature",
    "geometry": {
       "type": "Point",
       "coordinates":  [ 13.9431,56.28 ]
    },
    "properties": {
    "Id":63160,
    "Namn":"Hästveda Mo",
    "Höjd (m)":102.5,
    "Aktiv":"Ja"
    }
  },
  {
    "type": "Feature",
    "geometry": {
       "type": "Point",
       "coordinates":  [ 13.6662,55.8633 ]
    },
    "properties": {
    "Id":53530,
    "Namn":"Hörby A",
    "Höjd (m)":113.388,
    "Aktiv":"Ja"
    }
  },
  {
    "type": "Feature",
    "geometry": {
       "type": "Point",
       "coordinates":  [ 12.8521,61.8886 ]
    },
    "properties": {
    "Id":112540,
    "Namn":"Idre Fjäll A",
    "Höjd (m)":869.407,
    "Aktiv":"Ja"
    }
  },
  {
    "type": "Feature",
    "geometry": {
       "type": "Point",
       "coordinates":  [ 20.142,66.491 ]
    },
    "properties": {
    "Id":170860,
    "Namn":"Jokkmokk Flygplats Mo",
    "Höjd (m)":275.4,
    "Aktiv":"Ja"
    }
  },
  {
    "type": "Feature",
    "geometry": {
       "type": "Point",
       "coordinates":  [ 16.95,63.6839 ]
    },
    "properties": {
    "Id":136410,
    "Namn":"Junsele A",
    "Höjd (m)":218.766,
    "Aktiv":"Ja"
    }
  },
  {
    "type": "Feature",
    "geometry": {
       "type": "Point",
       "coordinates":  [ 19.6731,63.4351 ]
    },
    "properties": {
    "Id":139260,
    "Namn":"Järnäsklubb A",
    "Höjd (m)":5.928,
    "Aktiv":"Ja"
    }
  },
  {
    "type": "Feature",
    "geometry": {
       "type": "Point",
       "coordinates":  [ 14.0733,57.7514 ]
    },
    "properties": {
    "Id":74460,
    "Namn":"Jönköpings flygplats",
    "Höjd (m)":226,
    "Aktiv":"Ja"
    }
  },
  {
    "type": "Feature",
    "geometry": {
       "type": "Point",
       "coordinates":  [ 16.2922,56.6784 ]
    },
    "properties": {
    "Id":66420,
    "Namn":"Kalmar flygplats",
    "Höjd (m)":6,
    "Aktiv":"Ja"
    }
  },
  {
    "type": "Feature",
    "geometry": {
       "type": "Point",
       "coordinates":  [ 22.4435,68.4418 ]
    },
    "properties": {
    "Id":192840,
    "Namn":"Karesuando A",
    "Höjd (m)":329.68,
    "Aktiv":"Ja"
    }
  },
  {
    "type": "Feature",
    "geometry": {
       "type": "Point",
       "coordinates":  [ 14.507,58.514 ]
    },
    "properties": {
    "Id":84310,
    "Namn":"Karlsborg Mo",
    "Höjd (m)":94.5,
    "Aktiv":"Ja"
    }
  },
  {
    "type": "Feature",
    "geometry": {
       "type": "Point",
       "coordinates":  [ 14.8517,56.1813 ]
    },
    "properties": {
    "Id":64130,
    "Namn":"Karlshamn",
    "Höjd (m)":50,
    "Aktiv":"Ja"
    }
  },
  {
    "type": "Feature",
    "geometry": {
       "type": "Point",
       "coordinates":  [ 15.589,56.15 ]
    },
    "properties": {
    "Id":65090,
    "Namn":"Karlskrona-Söderstjerna Mo",
    "Höjd (m)":2.4,
    "Aktiv":"Ja"
    }
  },
  {
    "type": "Feature",
    "geometry": {
       "type": "Point",
       "coordinates":  [ 13.3374,59.4446 ]
    },
    "properties": {
    "Id":93220,
    "Namn":"Karlstad Flygplats",
    "Höjd (m)":107,
    "Aktiv":"Ja"
    }
  },
  {
    "type": "Feature",
    "geometry": {
       "type": "Point",
       "coordinates":  [ 18.167,68.4207 ]
    },
    "properties": {
    "Id":188820,
    "Namn":"Katterjåkk",
    "Höjd (m)":513.911,
    "Aktiv":"Ja"
    }
  },
  {
    "type": "Feature",
    "geometry": {
       "type": "Point",
       "coordinates":  [ 18.168,68.4202 ]
    },
    "properties": {
    "Id":188850,
    "Namn":"Katterjåkk A",
    "Höjd (m)":514.248,
    "Aktiv":"Ja"
    }
  },
  {
    "type": "Feature",
    "geometry": {
       "type": "Point",
       "coordinates":  [ 16.9738,60.2683 ]
    },
    "properties": {
    "Id":106160,
    "Namn":"Kerstinbo A",
    "Höjd (m)":55.695,
    "Aktiv":"Ja"
    }
  },
  {
    "type": "Feature",
    "geometry": {
       "type": "Point",
       "coordinates":  [ 15.0271,58.7162 ]
    },
    "properties": {
    "Id":85460,
    "Namn":"Kettstaka A",
    "Höjd (m)":224.876,
    "Aktiv":"Ja"
    }
  },
  {
    "type": "Feature",
    "geometry": {
       "type": "Point",
       "coordinates":  [ 14.8956,59.2996 ]
    },
    "properties": {
    "Id":94190,
    "Namn":"Kilsbergen-Suttarboda A",
    "Höjd (m)":218.353,
    "Aktiv":"Ja"
    }
  },
  {
    "type": "Feature",
    "geometry": {
       "type": "Point",
       "coordinates":  [ 20.3387,67.827 ]
    },
    "properties": {
    "Id":180940,
    "Namn":"Kiruna Flygplats",
    "Höjd (m)":459,
    "Aktiv":"Ja"
    }
  },
  {
    "type": "Feature",
    "geometry": {
       "type": "Point",
       "coordinates":  [ 15.2522,59.8703 ]
    },
    "properties": {
    "Id":95540,
    "Namn":"Kloten A",
    "Höjd (m)":283.21,
    "Aktiv":"Ja"
    }
  },
  {
    "type": "Feature",
    "geometry": {
       "type": "Point",
       "coordinates":  [ 14.1542,62.4952 ]
    },
    "properties": {
    "Id":124300,
    "Namn":"Klövsjöhöjden A",
    "Höjd (m)":802.503,
    "Aktiv":"Ja"
    }
  },
  {
    "type": "Feature",
    "geometry": {
       "type": "Point",
       "coordinates":  [ 16.3069,58.6892 ]
    },
    "properties": {
    "Id":86420,
    "Namn":"Kolmården-Strömsfors A",
    "Höjd (m)":153.613,
    "Aktiv":"Ja"
    }
  },
  {
    "type": "Feature",
    "geometry": {
       "type": "Point",
       "coordinates":  [ 13.5009,63.8385 ]
    },
    "properties": {
    "Id":133500,
    "Namn":"Korsvattnet A",
    "Höjd (m)":716.605,
    "Aktiv":"Ja"
    }
  },
  {
    "type": "Feature",
    "geometry": {
       "type": "Point",
       "coordinates":  [ 15.471,56.841 ]
    },
    "properties": {
    "Id":65510,
    "Namn":"Kosta Mo",
    "Höjd (m)":230,
    "Aktiv":"Ja"
    }
  },
  {
    "type": "Feature",
    "geometry": {
       "type": "Point",
       "coordinates":  [ 12.1973,58.6065 ]
    },
    "properties": {
    "Id":82360,
    "Namn":"Kroppefjäll-Granan A",
    "Höjd (m)":173.75,
    "Aktiv":"Ja"
    }
  },
  {
    "type": "Feature",
    "geometry": {
       "type": "Point",
       "coordinates":  [ 16.1699,63.1512 ]
    },
    "properties": {
    "Id":136090,
    "Namn":"Krångede A",
    "Höjd (m)":183.123,
    "Aktiv":"Ja"
    }
  },
  {
    "type": "Feature",
    "geometry": {
       "type": "Point",
       "coordinates":  [ 17.5216,61.7027 ]
    },
    "properties": {
    "Id":117430,
    "Namn":"Kuggören A",
    "Höjd (m)":8.568,
    "Aktiv":"Ja"
    }
  },
  {
    "type": "Feature",
    "geometry": {
       "type": "Point",
       "coordinates":  [ 15.434,58.645 ]
    },
    "properties": {
    "Id":85390,
    "Namn":"Kvarn Mo",
    "Höjd (m)":71.9,
    "Aktiv":"Ja"
    }
  },
  {
    "type": "Feature",
    "geometry": {
       "type": "Point",
       "coordinates":  [ 18.0198,66.8874 ]
    },
    "properties": {
    "Id":167990,
    "Namn":"Kvikkjokk-Årrenjarka A",
    "Höjd (m)":314.692,
    "Aktiv":"Ja"
    }
  },
  {
    "type": "Feature",
    "geometry": {
       "type": "Point",
       "coordinates":  [ 22.3518,67.7615 ]
    },
    "properties": {
    "Id":182930,
    "Namn":"Lainio",
    "Höjd (m)":315,
    "Aktiv":"Ja"
    }
  },
  {
    "type": "Feature",
    "geometry": {
       "type": "Point",
       "coordinates":  [ 21.1285,66.2789 ]
    },
    "properties": {
    "Id":171790,
    "Namn":"Lakaträsk A",
    "Höjd (m)":185.031,
    "Aktiv":"Ja"
    }
  },
  {
    "type": "Feature",
    "geometry": {
       "type": "Point",
       "coordinates":  [ 17.8684,58.7429 ]
    },
    "properties": {
    "Id":87440,
    "Namn":"Landsort A",
    "Höjd (m)":17.484,
    "Aktiv":"Ja"
    }
  },
  {
    "type": "Feature",
    "geometry": {
       "type": "Point",
       "coordinates":  [ 12.2919,57.6764 ]
    },
    "properties": {
    "Id":72420,
    "Namn":"Landvetter Flygplats",
    "Höjd (m)":154,
    "Aktiv":"Ja"
    }
  },
  {
    "type": "Feature",
    "geometry": {
       "type": "Point",
       "coordinates":  [ 20.2704,67.2551 ]
    },
    "properties": {
    "Id":180770,
    "Namn":"Latnivaara A",
    "Höjd (m)":453.191,
    "Aktiv":"Ja"
    }
  },
  {
    "type": "Feature",
    "geometry": {
       "type": "Point",
       "coordinates":  [ 13.8794,56.8525 ]
    },
    "properties": {
    "Id":63510,
    "Namn":"Ljungby A",
    "Höjd (m)":148.485,
    "Aktiv":"Ja"
    }
  },
  {
    "type": "Feature",
    "geometry": {
       "type": "Point",
       "coordinates":  [ 22.124,65.543 ]
    },
    "properties": {
    "Id":162860,
    "Namn":"Luleå Flygplats",
    "Höjd (m)":19.9,
    "Aktiv":"Ja"
    }
  },
  {
    "type": "Feature",
    "geometry": {
       "type": "Point",
       "coordinates":  [ 18.0899,62.6417 ]
    },
    "properties": {
    "Id":128390,
    "Namn":"Lungö A",
    "Höjd (m)":14.325,
    "Aktiv":"Ja"
    }
  },
  {
    "type": "Feature",
    "geometry": {
       "type": "Point",
       "coordinates":  [ 18.713,64.5481 ]
    },
    "properties": {
    "Id":148330,
    "Namn":"Lycksele A",
    "Höjd (m)":210.07,
    "Aktiv":"Ja"
    }
  },
  {
    "type": "Feature",
    "geometry": {
       "type": "Point",
       "coordinates":  [ 15.233,58.0716 ]
    },
    "properties": {
    "Id":85050,
    "Namn":"Malexander A",
    "Höjd (m)":197.27,
    "Aktiv":"Ja"
    }
  },
  {
    "type": "Feature",
    "geometry": {
       "type": "Point",
       "coordinates":  [ 15.523,58.398 ]
    },
    "properties": {
    "Id":85240,
    "Namn":"Malmslätt",
    "Höjd (m)":94,
    "Aktiv":"Ja"
    }
  },
  {
    "type": "Feature",
    "geometry": {
       "type": "Point",
       "coordinates":  [ 13.0708,55.5715 ]
    },
    "properties": {
    "Id":52350,
    "Namn":"Malmö A",
    "Höjd (m)":19.757,
    "Aktiv":"Ja"
    }
  },
  {
    "type": "Feature",
    "geometry": {
       "type": "Point",
       "coordinates":  [ 13.7072,60.6765 ]
    },
    "properties": {
    "Id":103420,
    "Namn":"Malung A",
    "Höjd (m)":302.583,
    "Aktiv":"Ja"
    }
  },
  {
    "type": "Feature",
    "geometry": {
       "type": "Point",
       "coordinates":  [ 18.5935,65.1512 ]
    },
    "properties": {
    "Id":158740,
    "Namn":"Malå-Brännan A",
    "Höjd (m)":363.111,
    "Aktiv":"Ja"
    }
  },
  {
    "type": "Feature",
    "geometry": {
       "type": "Point",
       "coordinates":  [ 16.1053,66.6802 ]
    },
    "properties": {
    "Id":166910,
    "Namn":"Mierkenis A",
    "Höjd (m)":613.982,
    "Aktiv":"Ja"
    }
  },
  {
    "type": "Feature",
    "geometry": {
       "type": "Point",
       "coordinates":  [ 14.5041,60.9601 ]
    },
    "properties": {
    "Id":104580,
    "Namn":"Mora A",
    "Höjd (m)":195.417,
    "Aktiv":"Ja"
    }
  },
  {
    "type": "Feature",
    "geometry": {
       "type": "Point",
       "coordinates":  [ 15.8009,57.3845 ]
    },
    "properties": {
    "Id":75250,
    "Namn":"Målilla A",
    "Höjd (m)":95.667,
    "Aktiv":"Ja"
    }
  },
  {
    "type": "Feature",
    "geometry": {
       "type": "Point",
       "coordinates":  [ 11.3312,58.0937 ]
    },
    "properties": {
    "Id":81050,
    "Namn":"Måseskär A",
    "Höjd (m)":14.973,
    "Aktiv":"Ja"
    }
  },
  {
    "type": "Feature",
    "geometry": {
       "type": "Point",
       "coordinates":  [ 21.5229,68.6762 ]
    },
    "properties": {
    "Id":191910,
    "Namn":"Naimakka A",
    "Höjd (m)":402.202,
    "Aktiv":"Ja"
    }
  },
  {
    "type": "Feature",
    "geometry": {
       "type": "Point",
       "coordinates":  [ 20.9238,66.7516 ]
    },
    "properties": {
    "Id":170930,
    "Namn":"Nattavaara A",
    "Höjd (m)":327.631,
    "Aktiv":"Ja"
    }
  },
  {
    "type": "Feature",
    "geometry": {
       "type": "Point",
       "coordinates":  [ 13.1109,58.6998 ]
    },
    "properties": {
    "Id":83420,
    "Namn":"Naven A",
    "Höjd (m)":53,
    "Aktiv":"Ja"
    }
  },
  {
    "type": "Feature",
    "geometry": {
       "type": "Point",
       "coordinates":  [ 11.9049,57.3036 ]
    },
    "properties": {
    "Id":71190,
    "Namn":"Nidingen A",
    "Höjd (m)":3.785,
    "Aktiv":"Ja"
    }
  },
  {
    "type": "Feature",
    "geometry": {
       "type": "Point",
       "coordinates":  [ 19.0212,67.8527 ]
    },
    "properties": {
    "Id":179960,
    "Namn":"Nikkaluokta A",
    "Höjd (m)":466.765,
    "Aktiv":"Ja"
    }
  },
  {
    "type": "Feature",
    "geometry": {
       "type": "Point",
       "coordinates":  [ 11.0038,58.892 ]
    },
    "properties": {
    "Id":81540,
    "Namn":"Nordkoster A",
    "Höjd (m)":33.362,
    "Aktiv":"Ja"
    }
  },
  {
    "type": "Feature",
    "geometry": {
       "type": "Point",
       "coordinates":  [ 16.147,58.5828 ]
    },
    "properties": {
    "Id":86340,
    "Namn":"Norrköping-SMHI",
    "Höjd (m)":40.334,
    "Aktiv":"Ja"
    }
  },
  {
    "type": "Feature",
    "geometry": {
       "type": "Point",
       "coordinates":  [ 19.3744,64.9253 ]
    },
    "properties": {
    "Id":149560,
    "Namn":"Norsjö A",
    "Höjd (m)":309.576,
    "Aktiv":"Ja"
    }
  },
  {
    "type": "Feature",
    "geometry": {
       "type": "Point",
       "coordinates":  [ 22.3315,66.8094 ]
    },
    "properties": {
    "Id":172940,
    "Namn":"Paharova A",
    "Höjd (m)":227.643,
    "Aktiv":"Ja"
    }
  },
  {
    "type": "Feature",
    "geometry": {
       "type": "Point",
       "coordinates":  [ 23.3899,67.2036 ]
    },
    "properties": {
    "Id":183750,
    "Namn":"Pajala A",
    "Höjd (m)":163.774,
    "Aktiv":"Ja"
    }
  },
  {
    "type": "Feature",
    "geometry": {
       "type": "Point",
       "coordinates":  [ 22.8219,67.7301 ]
    },
    "properties": {
    "Id":182910,
    "Namn":"Parkalompolo A",
    "Höjd (m)":312.183,
    "Aktiv":"Ja"
    }
  },
  {
    "type": "Feature",
    "geometry": {
       "type": "Point",
       "coordinates":  [ 19.6943,64.5659 ]
    },
    "properties": {
    "Id":149340,
    "Namn":"Petisträsk A",
    "Höjd (m)":258.047,
    "Aktiv":"Ja"
    }
  },
  {
    "type": "Feature",
    "geometry": {
       "type": "Point",
       "coordinates":  [ 21.5609,65.034 ]
    },
    "properties": {
    "Id":161710,
    "Namn":"Pite-Rönnskär A",
    "Höjd (m)":4.878,
    "Aktiv":"Ja"
    }
  },
  {
    "type": "Feature",
    "geometry": {
       "type": "Point",
       "coordinates":  [ 13.1514,58.7551 ]
    },
    "properties": {
    "Id":83450,
    "Namn":"Pålgrunden A",
    "Höjd (m)":53.642,
    "Aktiv":"Ja"
    }
  },
  {
    "type": "Feature",
    "geometry": {
       "type": "Point",
       "coordinates":  [ 19.8351,68.073 ]
    },
    "properties": {
    "Id":189720,
    "Namn":"Rensjön A",
    "Höjd (m)":493.651,
    "Aktiv":"Ja"
    }
  },
  {
    "type": "Feature",
    "geometry": {
       "type": "Point",
       "coordinates":  [ 17.4668,67.7255 ]
    },
    "properties": {
    "Id":177930,
    "Namn":"Ritsem A",
    "Höjd (m)":541.214,
    "Aktiv":"Ja"
    }
  },
  {
    "type": "Feature",
    "geometry": {
       "type": "Point",
       "coordinates":  [ 15.265,56.267 ]
    },
    "properties": {
    "Id":65160,
    "Namn":"Ronneby-Bredåkra",
    "Höjd (m)":58.2,
    "Aktiv":"Ja"
    }
  },
  {
    "type": "Feature",
    "geometry": {
       "type": "Point",
       "coordinates":  [ 13.1642,57.7846 ]
    },
    "properties": {
    "Id":73480,
    "Namn":"Rångedala A",
    "Höjd (m)":297.467,
    "Aktiv":"Ja"
    }
  },
  {
    "type": "Feature",
    "geometry": {
       "type": "Point",
       "coordinates":  [ 22.3709,65.3121 ]
    },
    "properties": {
    "Id":162790,
    "Namn":"Rödkallen A",
    "Höjd (m)":1.932,
    "Aktiv":"Ja"
    }
  },
  {
    "type": "Feature",
    "geometry": {
       "type": "Point",
       "coordinates":  [ 22.2288,67.3363 ]
    },
    "properties": {
    "Id":182810,
    "Namn":"Saittarova A",
    "Höjd (m)":240.652,
    "Aktiv":"Ja"
    }
  },
  {
    "type": "Feature",
    "geometry": {
       "type": "Point",
       "coordinates":  [ 16.6843,59.9093 ]
    },
    "properties": {
    "Id":96560,
    "Namn":"Sala A",
    "Höjd (m)":56.575,
    "Aktiv":"Ja"
    }
  },
  {
    "type": "Feature",
    "geometry": {
       "type": "Point",
       "coordinates":  [ 19.0199,63.1872 ]
    },
    "properties": {
    "Id":139120,
    "Namn":"Skagsudde A",
    "Höjd (m)":9.343,
    "Aktiv":"Ja"
    }
  },
  {
    "type": "Feature",
    "geometry": {
       "type": "Point",
       "coordinates":  [ 18.7404,59.3446 ]
    },
    "properties": {
    "Id":98160,
    "Namn":"Skarpö A",
    "Höjd (m)":19.287,
    "Aktiv":"Ja"
    }
  },
  {
    "type": "Feature",
    "geometry": {
       "type": "Point",
       "coordinates":  [ 21.0717,64.6244 ]
    },
    "properties": {
    "Id":151380,
    "Namn":"Skellefteå Flygplats",
    "Höjd (m)":48,
    "Aktiv":"Ja"
    }
  },
  {
    "type": "Feature",
    "geometry": {
       "type": "Point",
       "coordinates":  [ 14.3144,55.489 ]
    },
    "properties": {
    "Id":54290,
    "Namn":"Skillinge A",
    "Höjd (m)":4.016,
    "Aktiv":"Ja"
    }
  },
  {
    "type": "Feature",
    "geometry": {
       "type": "Point",
       "coordinates":  [ 14.5055,65.0929 ]
    },
    "properties": {
    "Id":154730,
    "Namn":"Stekenjokk A",
    "Höjd (m)":1037.322,
    "Aktiv":"Ja"
    }
  },
  {
    "type": "Feature",
    "geometry": {
       "type": "Point",
       "coordinates":  [ 18.0549,59.3417 ]
    },
    "properties": {
    "Id":98210,
    "Namn":"Stockholm",
    "Höjd (m)":43.133,
    "Aktiv":"Ja"
    }
  },
  {
    "type": "Feature",
    "geometry": {
       "type": "Point",
       "coordinates":  [ 18.0549,59.3417 ]
    },
    "properties": {
    "Id":98230,
    "Namn":"Stockholm A",
    "Höjd (m)":43.133,
    "Aktiv":"Ja"
    }
  },
  {
    "type": "Feature",
    "geometry": {
       "type": "Point",
       "coordinates":  [ 17.9545,59.6269 ]
    },
    "properties": {
    "Id":97400,
    "Namn":"Stockholm-Arlanda",
    "Höjd (m)":42,
    "Aktiv":"Ja"
    }
  },
  {
    "type": "Feature",
    "geometry": {
       "type": "Point",
       "coordinates":  [ 17.9513,59.3537 ]
    },
    "properties": {
    "Id":97200,
    "Namn":"Stockholm-Bromma",
    "Höjd (m)":14,
    "Aktiv":"Ja"
    }
  },
  {
    "type": "Feature",
    "geometry": {
       "type": "Point",
       "coordinates":  [ 18.2907,67.4948 ]
    },
    "properties": {
    "Id":178860,
    "Namn":"Stora Sjöfallet A",
    "Höjd (m)":426.536,
    "Aktiv":"Ja"
    }
  },
  {
    "type": "Feature",
    "geometry": {
       "type": "Point",
       "coordinates":  [ 15.1374,60.3817 ]
    },
    "properties": {
    "Id":105220,
    "Namn":"Stora Spånsberget A",
    "Höjd (m)":492.257,
    "Aktiv":"Ja"
    }
  },
  {
    "type": "Feature",
    "geometry": {
       "type": "Point",
       "coordinates":  [ 12.1218,63.2826 ]
    },
    "properties": {
    "Id":132170,
    "Namn":"Storlien-Storvallen A",
    "Höjd (m)":583.124,
    "Aktiv":"Ja"
    }
  },
  {
    "type": "Feature",
    "geometry": {
       "type": "Point",
       "coordinates":  [ 23.0959,65.6972 ]
    },
    "properties": {
    "Id":163900,
    "Namn":"Storön A",
    "Höjd (m)":2.394,
    "Aktiv":"Ja"
    }
  },
  {
    "type": "Feature",
    "geometry": {
       "type": "Point",
       "coordinates":  [ 13.3787,55.5231 ]
    },
    "properties": {
    "Id":53300,
    "Namn":"Sturup",
    "Höjd (m)":72,
    "Aktiv":"Ja"
    }
  },
  {
    "type": "Feature",
    "geometry": {
       "type": "Point",
       "coordinates":  [ 17.441,62.5246 ]
    },
    "properties": {
    "Id":127310,
    "Namn":"Sundsvalls Flygplats",
    "Höjd (m)":4,
    "Aktiv":"Ja"
    }
  },
  {
    "type": "Feature",
    "geometry": {
       "type": "Point",
       "coordinates":  [ 13.1166,59.8639 ]
    },
    "properties": {
    "Id":93520,
    "Namn":"Sunne A",
    "Höjd (m)":108.947,
    "Aktiv":"Ja"
    }
  },
  {
    "type": "Feature",
    "geometry": {
       "type": "Point",
       "coordinates":  [ 18.6313,59.8317 ]
    },
    "properties": {
    "Id":98490,
    "Namn":"Svanberga A",
    "Höjd (m)":14.821,
    "Aktiv":"Ja"
    }
  },
  {
    "type": "Feature",
    "geometry": {
       "type": "Point",
       "coordinates":  [ 14.4069,62.0462 ]
    },
    "properties": {
    "Id":124030,
    "Namn":"Sveg A",
    "Höjd (m)":357.187,
    "Aktiv":"Ja"
    }
  },
  {
    "type": "Feature",
    "geometry": {
       "type": "Point",
       "coordinates":  [ 19.5028,59.4439 ]
    },
    "properties": {
    "Id":99270,
    "Namn":"Svenska Högarna",
    "Höjd (m)":10.145,
    "Aktiv":"Ja"
    }
  },
  {
    "type": "Feature",
    "geometry": {
       "type": "Point",
       "coordinates":  [ 19.5022,59.4423 ]
    },
    "properties": {
    "Id":99280,
    "Namn":"Svenska Högarna A",
    "Höjd (m)":11.811,
    "Aktiv":"Ja"
    }
  },
  {
    "type": "Feature",
    "geometry": {
       "type": "Point",
       "coordinates":  [ 12.2748,63.0438 ]
    },
    "properties": {
    "Id":132030,
    "Namn":"Sylarna A",
    "Höjd (m)":1030.11,
    "Aktiv":"Ja"
    }
  },
  {
    "type": "Feature",
    "geometry": {
       "type": "Point",
       "coordinates":  [ 12.711,58.428 ]
    },
    "properties": {
    "Id":82260,
    "Namn":"Såtenäs",
    "Höjd (m)":55.1,
    "Aktiv":"Ja"
    }
  },
  {
    "type": "Feature",
    "geometry": {
       "type": "Point",
       "coordinates":  [ 19.4054,59.7531 ]
    },
    "properties": {
    "Id":99450,
    "Namn":"Söderarm A",
    "Höjd (m)":14.006,
    "Aktiv":"Ja"
    }
  },
  {
    "type": "Feature",
    "geometry": {
       "type": "Point",
       "coordinates":  [ 18.6101,67.9124 ]
    },
    "properties": {
    "Id":178970,
    "Namn":"Tarfala A",
    "Höjd (m)":1143.653,
    "Aktiv":"Ja"
    }
  },
  {
    "type": "Feature",
    "geometry": {
       "type": "Point",
       "coordinates":  [ 19.21,66.309 ]
    },
    "properties": {
    "Id":169790,
    "Namn":"Tjåkaape Mo",
    "Höjd (m)":580.4,
    "Aktiv":"Ja"
    }
  },
  {
    "type": "Feature",
    "geometry": {
       "type": "Point",
       "coordinates":  [ 14.4645,57.4981 ]
    },
    "properties": {
    "Id":74300,
    "Namn":"Tomtabacken A",
    "Höjd (m)":355.895,
    "Aktiv":"Ja"
    }
  },
  {
    "type": "Feature",
    "geometry": {
       "type": "Point",
       "coordinates":  [ 16.2774,62.4943 ]
    },
    "properties": {
    "Id":126290,
    "Namn":"Torpshammar A",
    "Höjd (m)":99,
    "Aktiv":"Ja"
    }
  },
  {
    "type": "Feature",
    "geometry": {
       "type": "Point",
       "coordinates":  [ 13.0601,56.9494 ]
    },
    "properties": {
    "Id":63590,
    "Namn":"Torup A",
    "Höjd (m)":132.532,
    "Aktiv":"Ja"
    }
  },
  {
    "type": "Feature",
    "geometry": {
       "type": "Point",
       "coordinates":  [ 17.9093,59.1785 ]
    },
    "properties": {
    "Id":97100,
    "Namn":"Tullinge A",
    "Höjd (m)":44.858,
    "Aktiv":"Ja"
    }
  },
  {
    "type": "Feature",
    "geometry": {
       "type": "Point",
       "coordinates":  [ 12.6676,62.4494 ]
    },
    "properties": {
    "Id":122260,
    "Namn":"Tännäs A",
    "Höjd (m)":723.013,
    "Aktiv":"Ja"
    }
  },
  {
    "type": "Feature",
    "geometry": {
       "type": "Point",
       "coordinates":  [ 12.7732,57.1134 ]
    },
    "properties": {
    "Id":72090,
    "Namn":"Ullared A",
    "Höjd (m)":122.356,
    "Aktiv":"Ja"
    }
  },
  {
    "type": "Feature",
    "geometry": {
       "type": "Point",
       "coordinates":  [ 20.2918,63.7947 ]
    },
    "properties": {
    "Id":140480,
    "Namn":"Umeå Flygplats",
    "Höjd (m)":14,
    "Aktiv":"Ja"
    }
  },
  {
    "type": "Feature",
    "geometry": {
       "type": "Point",
       "coordinates":  [ 17.632,59.8471 ]
    },
    "properties": {
    "Id":97510,
    "Namn":"Uppsala Aut",
    "Höjd (m)":23.453,
    "Aktiv":"Ja"
    }
  },
  {
    "type": "Feature",
    "geometry": {
       "type": "Point",
       "coordinates":  [ 17.593,59.9 ]
    },
    "properties": {
    "Id":97530,
    "Namn":"Uppsala Flygplats",
    "Höjd (m)":20.6,
    "Aktiv":"Ja"
    }
  },
  {
    "type": "Feature",
    "geometry": {
       "type": "Point",
       "coordinates":  [ 15.7048,55.9557 ]
    },
    "properties": {
    "Id":55570,
    "Namn":"Utklippan A",
    "Höjd (m)":2.391,
    "Aktiv":"Ja"
    }
  },
  {
    "type": "Feature",
    "geometry": {
       "type": "Point",
       "coordinates":  [ 20.1315,65.8801 ]
    },
    "properties": {
    "Id":160960,
    "Namn":"Vidsel",
    "Höjd (m)":180,
    "Aktiv":"Ja"
    }
  },
  {
    "type": "Feature",
    "geometry": {
       "type": "Point",
       "coordinates":  [ 20.15,65.875 ]
    },
    "properties": {
    "Id":160970,
    "Namn":"Vidsel Mo",
    "Höjd (m)":182.566,
    "Aktiv":"Ja"
    }
  },
  {
    "type": "Feature",
    "geometry": {
       "type": "Point",
       "coordinates":  [ 16.8386,64.5798 ]
    },
    "properties": {
    "Id":146350,
    "Namn":"Vilhelmina A",
    "Höjd (m)":348.198,
    "Aktiv":"Ja"
    }
  },
  {
    "type": "Feature",
    "geometry": {
       "type": "Point",
       "coordinates":  [ 19.7618,64.1386 ]
    },
    "properties": {
    "Id":149120,
    "Namn":"Vindeln-Sunnansjönäs",
    "Höjd (m)":237,
    "Aktiv":"Ja"
    }
  },
  {
    "type": "Feature",
    "geometry": {
       "type": "Point",
       "coordinates":  [ 11.6048,57.6322 ]
    },
    "properties": {
    "Id":71380,
    "Namn":"Vinga A",
    "Höjd (m)":18.205,
    "Aktiv":"Ja"
    }
  },
  {
    "type": "Feature",
    "geometry": {
       "type": "Point",
       "coordinates":  [ 18.3428,57.6614 ]
    },
    "properties": {
    "Id":78400,
    "Namn":"Visby Flygplats",
    "Höjd (m)":42,
    "Aktiv":"Ja"
    }
  },
  {
    "type": "Feature",
    "geometry": {
       "type": "Point",
       "coordinates":  [ 14.4058,58.0948 ]
    },
    "properties": {
    "Id":84050,
    "Namn":"Visingsö A",
    "Höjd (m)":93.582,
    "Aktiv":"Ja"
    }
  },
  {
    "type": "Feature",
    "geometry": {
       "type": "Point",
       "coordinates":  [ 11.0661,58.576 ]
    },
    "properties": {
    "Id":81350,
    "Namn":"Väderöarna A",
    "Höjd (m)":22.356,
    "Aktiv":"Ja"
    }
  },
  {
    "type": "Feature",
    "geometry": {
       "type": "Point",
       "coordinates":  [ 18.2518,63.1243 ]
    },
    "properties": {
    "Id":138070,
    "Namn":"Västmarkum A",
    "Höjd (m)":141.392,
    "Aktiv":"Ja"
    }
  },
  {
    "type": "Feature",
    "geometry": {
       "type": "Point",
       "coordinates":  [ 14.8296,56.8463 ]
    },
    "properties": {
    "Id":64510,
    "Namn":"Växjö A",
    "Höjd (m)":198.861,
    "Aktiv":"Ja"
    }
  },
  {
    "type": "Feature",
    "geometry": {
       "type": "Point",
       "coordinates":  [ 23.4635,66.6223 ]
    },
    "properties": {
    "Id":173900,
    "Namn":"Ylinenjärvi A",
    "Höjd (m)":133.672,
    "Aktiv":"Ja"
    }
  },
  {
    "type": "Feature",
    "geometry": {
       "type": "Point",
       "coordinates":  [ 15.1253,58.8061 ]
    },
    "properties": {
    "Id":85490,
    "Namn":"Zinkgruvan",
    "Höjd (m)":213.468,
    "Aktiv":"Ja"
    }
  },
  {
    "type": "Feature",
    "geometry": {
       "type": "Point",
       "coordinates":  [ 14.0355,61.2536 ]
    },
    "properties": {
    "Id":114140,
    "Namn":"Älvdalen A",
    "Höjd (m)":251.633,
    "Aktiv":"Ja"
    }
  },
  {
    "type": "Feature",
    "geometry": {
       "type": "Point",
       "coordinates":  [ 21.062,65.6691 ]
    },
    "properties": {
    "Id":161910,
    "Namn":"Älvsbyn A",
    "Höjd (m)":43.384,
    "Aktiv":"Ja"
    }
  },
  {
    "type": "Feature",
    "geometry": {
       "type": "Point",
       "coordinates":  [ 16.4279,60.9614 ]
    },
    "properties": {
    "Id":106570,
    "Namn":"Åmot A",
    "Höjd (m)":161.678,
    "Aktiv":"Ja"
    }
  },
  {
    "type": "Feature",
    "geometry": {
       "type": "Point",
       "coordinates":  [ 17.3153,64.165 ]
    },
    "properties": {
    "Id":147090,
    "Namn":"Åsele A",
    "Höjd (m)":307.712,
    "Aktiv":"Ja"
    }
  },
  {
    "type": "Feature",
    "geometry": {
       "type": "Point",
       "coordinates":  [ 14.3652,59.0963 ]
    },
    "properties": {
    "Id":94050,
    "Namn":"Åtorp",
    "Höjd (m)":98.8,
    "Aktiv":"Ja"
    }
  },
  {
    "type": "Feature",
    "geometry": {
       "type": "Point",
       "coordinates":  [ 17.0976,57.3665 ]
    },
    "properties": {
    "Id":77220,
    "Namn":"Ölands norra udde",
    "Höjd (m)":2.039,
    "Aktiv":"Ja"
    }
  },
  {
    "type": "Feature",
    "geometry": {
       "type": "Point",
       "coordinates":  [ 17.0954,57.3671 ]
    },
    "properties": {
    "Id":77210,
    "Namn":"Ölands norra udde A",
    "Höjd (m)":2.762,
    "Aktiv":"Ja"
    }
  },
  {
    "type": "Feature",
    "geometry": {
       "type": "Point",
       "coordinates":  [ 16.4005,56.1977 ]
    },
    "properties": {
    "Id":66110,
    "Namn":"Ölands södra udde A",
    "Höjd (m)":1.53,
    "Aktiv":"Ja"
    }
  },
  {
    "type": "Feature",
    "geometry": {
       "type": "Point",
       "coordinates":  [ 15.0455,59.2289 ]
    },
    "properties": {
    "Id":95130,
    "Namn":"Örebro Flygplats",
    "Höjd (m)":53,
    "Aktiv":"Ja"
    }
  },
  {
    "type": "Feature",
    "geometry": {
       "type": "Point",
       "coordinates":  [ 18.9797,63.4119 ]
    },
    "properties": {
    "Id":138240,
    "Namn":"Örnsköldsviks Flygplats",
    "Höjd (m)":108,
    "Aktiv":"Ja"
    }
  },
  {
    "type": "Feature",
    "geometry": {
       "type": "Point",
       "coordinates":  [ 18.3729,60.5256 ]
    },
    "properties": {
    "Id":108320,
    "Namn":"Örskär A",
    "Höjd (m)":6.539,
    "Aktiv":"Ja"
    }
  },
  {
    "type": "Feature",
    "geometry": {
       "type": "Point",
       "coordinates":  [ 18.9839,57.4408 ]
    },
    "properties": {
    "Id":78280,
    "Namn":"Östergarnsholm A",
    "Höjd (m)":8.127,
    "Aktiv":"Ja"
    }
  },
  {
    "type": "Feature",
    "geometry": {
       "type": "Point",
       "coordinates":  [ 22.8427,66.2618 ]
    },
    "properties": {
    "Id":172770,
    "Namn":"Överkalix-Svartbyn A",
    "Höjd (m)":61.024,
    "Aktiv":"Ja"
    }
  }
]
}